{
"type": "FeatureCollection",
"name": "village",
"crs": { "type": "name", "properties": { "name": "urn:ogc:def:crs:OGC:1.3:CRS84" } },
"features": [
{ "type": "Feature", "properties": { "village_id": 100, "village_name": "蒲市村" }, "geometry": { "type": "Point", "coordinates": [ 120.473706, 31.72236 ] } },
{ "type": "Feature", "properties": { "village_id": 101, "village_name": "王家村" }, "geometry": { "type": "Point", "coordinates": [ 120.437204, 31.735049 ] } },
{ "type": "Feature", "properties": { "village_id": 102, "village_name": "习礼村" }, "geometry": { "type": "Point", "coordinates": [ 120.502868, 31.729312 ] } },
{ "type": "Feature", "properties": { "village_id": 103, "village_name": "长东村" }, "geometry": { "type": "Point", "coordinates": [ 120.495222, 31.751039 ] } },
{ "type": "Feature", "properties": { "village_id": 10343, "village_name": "陆丰村" }, "geometry": { "type": "Point", "coordinates": [ 120.460444, 31.809465 ] } },
{ "type": "Feature", "properties": { "village_id": 104, "village_name": "赤岸" }, "geometry": { "type": "Point", "coordinates": [ 120.575975, 31.774732 ] } },
{ "type": "Feature", "properties": { "village_id": 10400, "village_name": "华西一村" }, "geometry": { "type": "Point", "coordinates": [ 120.455371, 31.850466 ] } },
{ "type": "Feature", "properties": { "village_id": 10464, "village_name": "赵宕村" }, "geometry": { "type": "Point", "coordinates": [ 120.225083, 31.741869 ] } },
{ "type": "Feature", "properties": { "village_id": 10473, "village_name": "新安村" }, "geometry": { "type": "Point", "coordinates": [ 120.222732, 31.767703 ] } },
{ "type": "Feature", "properties": { "village_id": 105, "village_name": "东岐村" }, "geometry": { "type": "Point", "coordinates": [ 120.514163, 31.779833 ] } },
{ "type": "Feature", "properties": { "village_id": 106, "village_name": "顾山社区" }, "geometry": { "type": "Point", "coordinates": [ 120.557207, 31.734504 ] } },
{ "type": "Feature", "properties": { "village_id": 10640, "village_name": "华西三村" }, "geometry": { "type": "Point", "coordinates": [ 120.428883, 31.829076 ] } },
{ "type": "Feature", "properties": { "village_id": 107, "village_name": "漍东村" }, "geometry": { "type": "Point", "coordinates": [ 120.558586, 31.77353 ] } },
{ "type": "Feature", "properties": { "village_id": 10721, "village_name": "周庄-曙新村" }, "geometry": { "type": "Point", "coordinates": [ 120.0138475, 31.93208502 ] } },
{ "type": "Feature", "properties": { "village_id": 108, "village_name": "鉴青村" }, "geometry": { "type": "Point", "coordinates": [ 120.52635, 31.769937 ] } },
{ "type": "Feature", "properties": { "village_id": 109, "village_name": "解放村" }, "geometry": { "type": "Point", "coordinates": [ 120.550832, 31.78314 ] } },
{ "type": "Feature", "properties": { "village_id": 110, "village_name": "南曹庄村" }, "geometry": { "type": "Point", "coordinates": [ 120.558171, 31.762851 ] } },
{ "type": "Feature", "properties": { "village_id": 111, "village_name": "万兴村" }, "geometry": { "type": "Point", "coordinates": [ 120.527734, 31.759773 ] } },
{ "type": "Feature", "properties": { "village_id": 112, "village_name": "新龚村" }, "geometry": { "type": "Point", "coordinates": [ 120.54839, 31.734199 ] } },
{ "type": "Feature", "properties": { "village_id": 11519, "village_name": "华西十三村" }, "geometry": { "type": "Point", "coordinates": [ 120.451442, 31.791722 ] } },
{ "type": "Feature", "properties": { "village_id": 11997, "village_name": "华西六村" }, "geometry": { "type": "Point", "coordinates": [ 120.45913, 31.868998 ] } },
{ "type": "Feature", "properties": { "village_id": 12019, "village_name": "华西九村" }, "geometry": { "type": "Point", "coordinates": [ 120.478023, 31.876955 ] } },
{ "type": "Feature", "properties": { "village_id": 12152, "village_name": "华西二村" }, "geometry": { "type": "Point", "coordinates": [ 120.445081, 31.827707 ] } },
{ "type": "Feature", "properties": { "village_id": 12747, "village_name": "北漍村" }, "geometry": { "type": "Point", "coordinates": [ 120.549729, 31.780755 ] } },
{ "type": "Feature", "properties": { "village_id": 12849, "village_name": "红豆村" }, "geometry": { "type": "Point", "coordinates": [ 120.586626, 31.745835 ] } },
{ "type": "Feature", "properties": { "village_id": 15171, "village_name": "永昌村" }, "geometry": { "type": "Point", "coordinates": [ 120.443855, 31.760442 ] } },
{ "type": "Feature", "properties": { "village_id": 15274, "village_name": "河湘村" }, "geometry": { "type": "Point", "coordinates": [ 120.421007, 31.729273 ] } },
{ "type": "Feature", "properties": { "village_id": 15492, "village_name": "五福村" }, "geometry": { "type": "Point", "coordinates": [ 120.388892, 31.717767 ] } },
{ "type": "Feature", "properties": { "village_id": 4754, "village_name": "金凤村" }, "geometry": { "type": "Point", "coordinates": [ 120.324081, 31.767241 ] } },
{ "type": "Feature", "properties": { "village_id": 4756, "village_name": "蔡泾村" }, "geometry": { "type": "Point", "coordinates": [ 120.251561, 31.873156 ] } },
{ "type": "Feature", "properties": { "village_id": 4766, "village_name": "石庄村" }, "geometry": { "type": "Point", "coordinates": [ 120.03351, 31.923493 ] } },
{ "type": "Feature", "properties": { "village_id": 4769, "village_name": "北郭庄村" }, "geometry": { "type": "Point", "coordinates": [ 120.076389, 31.877764 ] } },
{ "type": "Feature", "properties": { "village_id": 4771, "village_name": "上东村" }, "geometry": { "type": "Point", "coordinates": [ 120.345483, 31.741865 ] } },
{ "type": "Feature", "properties": { "village_id": 4778, "village_name": "顾北社区" }, "geometry": { "type": "Point", "coordinates": [ 120.570697, 31.747971 ] } },
{ "type": "Feature", "properties": { "village_id": 4902, "village_name": "红星" }, "geometry": { "type": "Point", "coordinates": [ 120.345575, 31.729546 ] } },
{ "type": "Feature", "properties": { "village_id": 4905, "village_name": "北湖西村" }, "geometry": { "type": "Point", "coordinates": [ 120.045403, 31.885172 ] } },
{ "type": "Feature", "properties": { "village_id": 4907, "village_name": "宗言村" }, "geometry": { "type": "Point", "coordinates": [ 120.413137, 31.884751 ] } },
{ "type": "Feature", "properties": { "village_id": 4909, "village_name": "塘头桥" }, "geometry": { "type": "Point", "coordinates": [ 120.285778, 31.732756 ] } },
{ "type": "Feature", "properties": { "village_id": 4910, "village_name": "后梅社区" }, "geometry": { "type": "Point", "coordinates": [ 120.0975, 31.879382 ] } },
{ "type": "Feature", "properties": { "village_id": 4911, "village_name": "南苑" }, "geometry": { "type": "Point", "coordinates": [ 120.28623, 31.806277 ] } },
{ "type": "Feature", "properties": { "village_id": 4913, "village_name": "观西村" }, "geometry": { "type": "Point", "coordinates": [ 120.184777, 31.827286 ] } },
{ "type": "Feature", "properties": { "village_id": 4914, "village_name": "方园村" }, "geometry": { "type": "Point", "coordinates": [ 120.334422, 31.783486 ] } },
{ "type": "Feature", "properties": { "village_id": 4916, "village_name": "里旺里村" }, "geometry": { "type": "Point", "coordinates": [ 120.265824, 31.75088 ] } },
{ "type": "Feature", "properties": { "village_id": 4919, "village_name": "新须毛村" }, "geometry": { "type": "Point", "coordinates": [ 120.362121, 31.778778 ] } },
{ "type": "Feature", "properties": { "village_id": 4923, "village_name": "新街村" }, "geometry": { "type": "Point", "coordinates": [ 120.272878, 31.824922 ] } },
{ "type": "Feature", "properties": { "village_id": 4924, "village_name": "红苗村" }, "geometry": { "type": "Point", "coordinates": [ 120.475088, 31.80393 ] } },
{ "type": "Feature", "properties": { "village_id": 4925, "village_name": "泗河口" }, "geometry": { "type": "Point", "coordinates": [ 120.240253, 31.754191 ] } },
{ "type": "Feature", "properties": { "village_id": 4926, "village_name": "葫桥村" }, "geometry": { "type": "Point", "coordinates": [ 120.230806, 31.892679 ] } },
{ "type": "Feature", "properties": { "village_id": 4928, "village_name": "璜东村" }, "geometry": { "type": "Point", "coordinates": [ 120.370387, 31.777847 ] } },
{ "type": "Feature", "properties": { "village_id": 4929, "village_name": "建南村" }, "geometry": { "type": "Point", "coordinates": [ 120.416506, 31.760428 ] } },
{ "type": "Feature", "properties": { "village_id": 4930, "village_name": "泾南村" }, "geometry": { "type": "Point", "coordinates": [ 120.481265, 31.753781 ] } },
{ "type": "Feature", "properties": { "village_id": 4931, "village_name": "戴庄村" }, "geometry": { "type": "Point", "coordinates": [ 120.253566, 31.817377 ] } },
{ "type": "Feature", "properties": { "village_id": 4932, "village_name": "向阳村" }, "geometry": { "type": "Point", "coordinates": [ 120.436465, 31.851596 ] } },
{ "type": "Feature", "properties": { "village_id": 4933, "village_name": "涂镇村" }, "geometry": { "type": "Point", "coordinates": [ 120.253104, 31.845696 ] } },
{ "type": "Feature", "properties": { "village_id": 4934, "village_name": "东刘村" }, "geometry": { "type": "Point", "coordinates": [ 120.16119, 31.891645 ] } },
{ "type": "Feature", "properties": { "village_id": 4936, "village_name": "普照村" }, "geometry": { "type": "Point", "coordinates": [ 120.294638, 31.781997 ] } },
{ "type": "Feature", "properties": { "village_id": 50, "village_name": "常泽桥村" }, "geometry": { "type": "Point", "coordinates": [ 120.038652, 31.849742 ] } },
{ "type": "Feature", "properties": { "village_id": 51, "village_name": "高栗村" }, "geometry": { "type": "Point", "coordinates": [ 120.038645, 31.891659 ] } },
{ "type": "Feature", "properties": { "village_id": 52, "village_name": "璜土村" }, "geometry": { "type": "Point", "coordinates": [ 120.035908, 31.869067 ] } },
{ "type": "Feature", "properties": { "village_id": 53, "village_name": "篁村村" }, "geometry": { "type": "Point", "coordinates": [ 120.030962, 31.839474 ] } },
{ "type": "Feature", "properties": { "village_id": 54, "village_name": "汇南村" }, "geometry": { "type": "Point", "coordinates": [ 120.051802, 31.83965 ] } },
{ "type": "Feature", "properties": { "village_id": 55, "village_name": "利城村" }, "geometry": { "type": "Point", "coordinates": [ 120.062489, 31.870814 ] } },
{ "type": "Feature", "properties": { "village_id": 56, "village_name": "芦墩村" }, "geometry": { "type": "Point", "coordinates": [ 120.037015, 31.908082 ] } },
{ "type": "Feature", "properties": { "village_id": 57, "village_name": "小湖村" }, "geometry": { "type": "Point", "coordinates": [ 120.007312, 31.857051 ] } },
{ "type": "Feature", "properties": { "village_id": 58, "village_name": "苍山村" }, "geometry": { "type": "Point", "coordinates": [ 120.091301, 31.888178 ] } },
{ "type": "Feature", "properties": { "village_id": 5808, "village_name": "陆南村" }, "geometry": { "type": "Point", "coordinates": [ 120.459426, 31.774481 ] } },
{ "type": "Feature", "properties": { "village_id": 60, "village_name": "维常村" }, "geometry": { "type": "Point", "coordinates": [ 120.104429, 31.870216 ] } },
{ "type": "Feature", "properties": { "village_id": 61, "village_name": "西石桥社区" }, "geometry": { "type": "Point", "coordinates": [ 120.0899, 31.876553 ] } },
{ "type": "Feature", "properties": { "village_id": 62, "village_name": "申南村" }, "geometry": { "type": "Point", "coordinates": [ 120.177027, 31.869937 ] } },
{ "type": "Feature", "properties": { "village_id": 63, "village_name": "夏南村" }, "geometry": { "type": "Point", "coordinates": [ 120.211369, 31.874654 ] } },
{ "type": "Feature", "properties": { "village_id": 64, "village_name": "龙运村" }, "geometry": { "type": "Point", "coordinates": [ 120.235915, 31.851731 ] } },
{ "type": "Feature", "properties": { "village_id": 65, "village_name": "南闸村" }, "geometry": { "type": "Point", "coordinates": [ 120.236208, 31.84282 ] } },
{ "type": "Feature", "properties": { "village_id": 67, "village_name": "定山村" }, "geometry": { "type": "Point", "coordinates": [ 120.350226, 31.864056 ] } },
{ "type": "Feature", "properties": { "village_id": 68, "village_name": "花山村" }, "geometry": { "type": "Point", "coordinates": [ 120.303937, 31.850401 ] } },
{ "type": "Feature", "properties": { "village_id": 6872, "village_name": "华西五村" }, "geometry": { "type": "Point", "coordinates": [ 120.438522, 31.810397 ] } },
{ "type": "Feature", "properties": { "village_id": 69, "village_name": "毗山村" }, "geometry": { "type": "Point", "coordinates": [ 120.343623, 31.829931 ] } },
{ "type": "Feature", "properties": { "village_id": 70, "village_name": "佘城村" }, "geometry": { "type": "Point", "coordinates": [ 120.325833, 31.839118 ] } },
{ "type": "Feature", "properties": { "village_id": 71, "village_name": "云亭村" }, "geometry": { "type": "Point", "coordinates": [ 120.338266, 31.852629 ] } },
{ "type": "Feature", "properties": { "village_id": 72, "village_name": "东林村" }, "geometry": { "type": "Point", "coordinates": [ 120.414664, 31.89878 ] } },
{ "type": "Feature", "properties": { "village_id": 73, "village_name": "稷山村" }, "geometry": { "type": "Point", "coordinates": [ 120.395701, 31.894692 ] } },
{ "type": "Feature", "properties": { "village_id": 74, "village_name": "陶城村" }, "geometry": { "type": "Point", "coordinates": [ 120.429468, 31.888516 ] } },
{ "type": "Feature", "properties": { "village_id": 75, "village_name": "长乐村" }, "geometry": { "type": "Point", "coordinates": [ 120.397005, 31.801999 ] } },
{ "type": "Feature", "properties": { "village_id": 76, "village_name": "长南村" }, "geometry": { "type": "Point", "coordinates": [ 120.382311, 31.792723 ] } },
{ "type": "Feature", "properties": { "village_id": 77, "village_name": "长寿村" }, "geometry": { "type": "Point", "coordinates": [ 120.372837, 31.81369 ] } },
{ "type": "Feature", "properties": { "village_id": 78, "village_name": "蔡庄村" }, "geometry": { "type": "Point", "coordinates": [ 120.212674, 31.785999 ] } },
{ "type": "Feature", "properties": { "village_id": 79, "village_name": "双泾村" }, "geometry": { "type": "Point", "coordinates": [ 120.190501, 31.791277 ] } },
{ "type": "Feature", "properties": { "village_id": 80, "village_name": "卧龙村" }, "geometry": { "type": "Point", "coordinates": [ 120.208923, 31.799818 ] } },
{ "type": "Feature", "properties": { "village_id": 81, "village_name": "月城村" }, "geometry": { "type": "Point", "coordinates": [ 120.236115, 31.807367 ] } },
{ "type": "Feature", "properties": { "village_id": 82, "village_name": "小桥村" }, "geometry": { "type": "Point", "coordinates": [ 120.253169, 31.773031 ] } },
{ "type": "Feature", "properties": { "village_id": 83, "village_name": "悟空村" }, "geometry": { "type": "Point", "coordinates": [ 120.301589, 31.757394 ] } },
{ "type": "Feature", "properties": { "village_id": 84, "village_name": "金庄村" }, "geometry": { "type": "Point", "coordinates": [ 120.394112, 31.763271 ] } },
{ "type": "Feature", "properties": { "village_id": 85, "village_name": "茂龙村" }, "geometry": { "type": "Point", "coordinates": [ 120.414388, 31.783305 ] } },
{ "type": "Feature", "properties": { "village_id": 86, "village_name": "石堰村" }, "geometry": { "type": "Point", "coordinates": [ 120.386309, 31.734461 ] } },
{ "type": "Feature", "properties": { "village_id": 87, "village_name": "永平村" }, "geometry": { "type": "Point", "coordinates": [ 120.426696, 31.774534 ] } },
{ "type": "Feature", "properties": { "village_id": 88, "village_name": "华西八村" }, "geometry": { "type": "Point", "coordinates": [ 120.455503, 31.885963 ] } },
{ "type": "Feature", "properties": { "village_id": 8830, "village_name": "桐岐村" }, "geometry": { "type": "Point", "coordinates": [ 120.227187, 31.748073 ] } },
{ "type": "Feature", "properties": { "village_id": 89, "village_name": "华西七村" }, "geometry": { "type": "Point", "coordinates": [ 120.458254, 31.8723 ] } },
{ "type": "Feature", "properties": { "village_id": 8961, "village_name": "北湾头" }, "geometry": { "type": "Point", "coordinates": [ 120.1231111, 31.93213241 ] } },
{ "type": "Feature", "properties": { "village_id": 90, "village_name": "华西十村" }, "geometry": { "type": "Point", "coordinates": [ 120.48201, 31.868636 ] } },
{ "type": "Feature", "properties": { "village_id": 91, "village_name": "华西十一村" }, "geometry": { "type": "Point", "coordinates": [ 120.489337, 31.846166 ] } },
{ "type": "Feature", "properties": { "village_id": 9121, "village_name": "华宏村" }, "geometry": { "type": "Point", "coordinates": [ 120.401388, 31.857847 ] } },
{ "type": "Feature", "properties": { "village_id": 92, "village_name": "陆桥村" }, "geometry": { "type": "Point", "coordinates": [ 120.452999, 31.776848 ] } },
{ "type": "Feature", "properties": { "village_id": 93, "village_name": "蔡桥村" }, "geometry": { "type": "Point", "coordinates": [ 120.441949, 31.716891 ] } },
{ "type": "Feature", "properties": { "village_id": 94, "village_name": "和平村" }, "geometry": { "type": "Point", "coordinates": [ 120.474831, 31.773833 ] } },
{ "type": "Feature", "properties": { "village_id": 95, "village_name": "河塘村" }, "geometry": { "type": "Point", "coordinates": [ 120.461051, 31.722289 ] } },
{ "type": "Feature", "properties": { "village_id": 96, "village_name": "花园村" }, "geometry": { "type": "Point", "coordinates": [ 120.495566, 31.765901 ] } },
{ "type": "Feature", "properties": { "village_id": 9604, "village_name": "国南村" }, "geometry": { "type": "Point", "coordinates": [ 120.55092, 31.776407 ] } },
{ "type": "Feature", "properties": { "village_id": 97, "village_name": "泾东村" }, "geometry": { "type": "Point", "coordinates": [ 120.488273, 31.743602 ] } },
{ "type": "Feature", "properties": { "village_id": 9765, "village_name": "华西十二村" }, "geometry": { "type": "Point", "coordinates": [ 120.445945, 31.801047 ] } },
{ "type": "Feature", "properties": { "village_id": 98, "village_name": "刘桥村" }, "geometry": { "type": "Point", "coordinates": [ 120.486977, 31.782408 ] } },
{ "type": "Feature", "properties": { "village_id": 9846, "village_name": "曙新村" }, "geometry": { "type": "Point", "coordinates": [ 120.484014, 31.855716 ] } },
{ "type": "Feature", "properties": { "village_id": 99, "village_name": "南国村" }, "geometry": { "type": "Point", "coordinates": [ 120.507836, 31.746991 ] } },
{ "type": "Feature", "properties": { "village_id": 9901, "village_name": "华中村" }, "geometry": { "type": "Point", "coordinates": [ 120.471691, 31.834509 ] } },
{ "type": "Feature", "properties": { "village_id": 59, "village_name": "巨轮村" }, "geometry": { "type": "Point", "coordinates": [ 120.063356, 31.92097 ] } },
{ "type": "Feature", "properties": { "village_id": 66, "village_name": "曙光村" }, "geometry": { "type": "Point", "coordinates": [ 120.243132, 31.849139 ] } },
{ "type": "Feature", "properties": { "village_id": 4763, "village_name": "芦塘村" }, "geometry": { "type": "Point", "coordinates": [ 120.279146, 31.753508 ] } },
{ "type": "Feature", "properties": { "village_id": 4767, "village_name": "宏岐村" }, "geometry": { "type": "Point", "coordinates": [ 120.307744, 31.820547 ] } },
{ "type": "Feature", "properties": { "village_id": 4773, "village_name": "任九房" }, "geometry": { "type": "Point", "coordinates": [ 120.333259, 31.764167 ] } },
{ "type": "Feature", "properties": { "village_id": 4776, "village_name": "湖塘村" }, "geometry": { "type": "Point", "coordinates": [ 120.361611, 31.721563 ] } },
{ "type": "Feature", "properties": { "village_id": 4784, "village_name": "龙砂村" }, "geometry": { "type": "Point", "coordinates": [ 120.475426, 31.856544 ] } },
{ "type": "Feature", "properties": { "village_id": 4900, "village_name": "下塘" }, "geometry": { "type": "Point", "coordinates": [ 120.233917, 31.810015 ] } },
{ "type": "Feature", "properties": { "village_id": 4901, "village_name": "璜塘" }, "geometry": { "type": "Point", "coordinates": [ 120.354919, 31.758938 ] } },
{ "type": "Feature", "properties": { "village_id": 4904, "village_name": "利港社区" }, "geometry": { "type": "Point", "coordinates": [ 120.08549, 31.918162 ] } },
{ "type": "Feature", "properties": { "village_id": 4906, "village_name": "于门村" }, "geometry": { "type": "Point", "coordinates": [ 120.173611, 31.891459 ] } },
{ "type": "Feature", "properties": { "village_id": 4908, "village_name": "周庄村" }, "geometry": { "type": "Point", "coordinates": [ 120.439004, 31.858233 ] } },
{ "type": "Feature", "properties": { "village_id": 4912, "village_name": "李沟头村" }, "geometry": { "type": "Point", "coordinates": [ 120.191854, 31.903897 ] } },
{ "type": "Feature", "properties": { "village_id": 4915, "village_name": "皋岸村" }, "geometry": { "type": "Point", "coordinates": [ 120.342778, 31.799007 ] } },
{ "type": "Feature", "properties": { "village_id": 4917, "village_name": "陈墅社区" }, "geometry": { "type": "Point", "coordinates": [ 120.099215, 31.920796 ] } },
{ "type": "Feature", "properties": { "village_id": 4918, "village_name": "东支社区" }, "geometry": { "type": "Point", "coordinates": [ 120.119829, 31.883538 ] } },
{ "type": "Feature", "properties": { "village_id": 4920, "village_name": "黎明村" }, "geometry": { "type": "Point", "coordinates": [ 120.328151, 31.816208 ] } },
{ "type": "Feature", "properties": { "village_id": 4921, "village_name": "江市社区" }, "geometry": { "type": "Point", "coordinates": [ 120.084887, 31.889215 ] } },
{ "type": "Feature", "properties": { "village_id": 4922, "village_name": "沿山村" }, "geometry": { "type": "Point", "coordinates": [ 120.20416, 31.823447 ] } },
{ "type": "Feature", "properties": { "village_id": 4927, "village_name": "南新村" }, "geometry": { "type": "Point", "coordinates": [ 120.249083, 31.859416 ] } },
{ "type": "Feature", "properties": { "village_id": 4935, "village_name": "黄桥村" }, "geometry": { "type": "Point", "coordinates": [ 120.220704, 31.785104 ] } },
{ "type": "Feature", "properties": { "village_id": 7534, "village_name": "祝塘邱家村" }, "geometry": { "type": "Point", "coordinates": [ 120.269992, 31.802924 ] } },
{ "type": "Feature", "properties": { "village_id": 7945, "village_name": "邓阳村" }, "geometry": { "type": "Point", "coordinates": [ 120.290999, 31.749748 ] } },
{ "type": "Feature", "properties": { "village_id": 8829, "village_name": "建义村" }, "geometry": { "type": "Point", "coordinates": [ 120.256281, 31.79666 ] } },
{ "type": "Feature", "properties": { "village_id": 9830, "village_name": "华益村" }, "geometry": { "type": "Point", "coordinates": [ 120.482431, 31.82092 ] } },
{ "type": "Feature", "properties": { "village_id": 9995, "village_name": "龙河村" }, "geometry": { "type": "Point", "coordinates": [ 120.489999, 31.83883 ] } },
{ "type": "Feature", "properties": { "village_id": 11668, "village_name": "红光村" }, "geometry": { "type": "Point", "coordinates": [ 120.244249, 31.885034 ] } },
{ "type": "Feature", "properties": { "village_id": 11693, "village_name": "西奚墅村" }, "geometry": { "type": "Point", "coordinates": [ 120.06175, 31.913016 ] } },
{ "type": "Feature", "properties": { "village_id": 14404, "village_name": "北渚" }, "geometry": { "type": "Point", "coordinates": [ 120.306782, 31.712364 ] } },
{ "type": "Feature", "properties": { "village_id": 14437, "village_name": "钓岐村" }, "geometry": { "type": "Point", "coordinates": [ 120.314169, 31.82462 ] } },
{ "type": "Feature", "properties": { "village_id": 14493, "village_name": "东宏村" }, "geometry": { "type": "Point", "coordinates": [ 120.34369, 31.819187 ] } },
{ "type": "Feature", "properties": { "village_id": 14998, "village_name": "峭岐村" }, "geometry": { "type": "Point", "coordinates": [ 120.319516, 31.813471 ] } }
]
}
